#
# Header Description:
#
# Version: v1.4.0.0 Platform: 7.1.2
#
# Raw,ElapsedRealtimeMillis,TimeNanos,LeapSecond,TimeUncertaintyNanos,FullBiasNanos,BiasNanos,BiasUncertaintyNanos,DriftNanosPerSecond,DriftUncertaintyNanosPerSecond,HardwareClockDiscontinuityCount, Svid,TimeOffsetNanos,State,ReceivedSvTimeNanos,ReceivedSvTimeUncertaintyNanos,Cn0DbHz,PseudorangeRateMetersPerSecond,PseudorangeRateUncertaintyMetersPerSecond,AccumulatedDeltaRangeState,AccumulatedDeltaRangeMeters,AccumulatedDeltaRangeUncertaintyMeters,CarrierFrequencyHz,CarrierCycles,CarrierPhase,CarrierPhaseUncertainty,MultipathIndicator,SnrInDb,ConstellationType
#
# Fix,Provider,Latitude,Longitude,Altitude,Speed,Accuracy,(UTC)TimeInMs
#
# Nav,Svid,Type,Status,MessageId,Sub-messageId,Data(Bytes)
#
Raw,1490648213386,9645000000,0,0,-1172865753354928128,0,0,0,0,0,26,0,3,1398397,6,46,167.289733,0.030252,1,-1260.044435,0.000472,1575419120,0,0,0,0,0,1
Raw,1490648213386,9645000000,0,0,-1172865753354928128,0,0,0,0,0,26,0,1,1398357,3,46,167.209264,0.030252,4,-10433.506545,340282346638528859811704183484516925440.000000,1176449343,0,0,0,0,0,1
Raw,1490648213386,9645000000,0,0,-1172865753354928128,0,0,0,0,0,27,0,15,158562917525015,6,43,-840.969141,0.035707,1,6360.970060,0.000669,1575424419,0,0,0,0,0,1
Raw,1490648213386,9645000000,0,0,-1172865753354928128,0,0,0,0,0,27,0,13,158562917524998,3,46,-837.243520,0.033152,4,48228.235397,340282346638528859811704183484516925440.000000,1176453285,0,0,0,0,0,1
Raw,1490648213386,9645000000,0,0,-1172865753354928128,0,0,0,0,0,22,0,3,1382662,6,43,307.855617,0.030249,1,-2324.747475,0.000609,1575418382,0,0,0,0,0,1
Raw,1490648213386,9645000000,0,0,-1172865753354928128,0,0,0,0,0,16,0,15,158562928707285,6,47,-127.852122,0.031566,1,971.904563,0.000390,1575420671,0,0,0,0,0,1
Raw,1490648213386,9645000000,0,0,-1172865753354928128,0,0,0,0,0,23,0,3,11491601,6,49,-364.129161,0.032067,1,2750.848143,0.000331,1575421913,0,0,0,0,0,1
Raw,1490648213386,9645000000,0,0,-1172865753354928128,0,0,0,0,0,3,0,15,158562926130839,6,46,227.475040,0.031103,1,-1715.742798,0.000460,1575418804,0,0,0,0,0,1
Raw,1490648213386,9645000000,0,0,-1172865753354928128,0,0,0,0,0,3,0,13,158562926130829,3,48,227.487957,0.031103,4,-837.033816,340282346638528859811704183484516925440.000000,1176449107,0,0,0,0,0,1
Raw,1490648213386,9645000000,0,0,-1172865753354928128,0,0,0,0,0,2,0,3,14073568,67,21,-435.869732,0.393617,4,2423.854664,340282346638528859811704183484516925440.000000,1575422290,0,0,0,0,0,1
Raw,1490648213386,9645000000,0,0,-1172865753354928128,0,0,0,0,0,7,0,3,6889126,6,48,-721.389343,0.031239,1,5457.348551,0.000354,1575423790,0,0,0,0,0,1
Raw,1490648213386,9645000000,0,0,-1172865753354928128,0,0,0,0,0,6,0,3,18317387,6,41,-82.976910,0.041572,1,547.675442,0.000746,1575420436,0,0,0,0,0,1
Raw,1490648213386,9645000000,0,0,-1172865753354928128,0,0,0,0,0,6,0,1,18317326,3,40,-81.897859,0.051859,4,4363.244908,340282346638528859811704183484516925440.000000,1176450321,0,0,0,0,0,1
Raw,1490648213386,9645000000,0,0,-1172865753354928128,0,0,0,0,0,9,0,15,158562929718787,6,48,-713.611249,0.031748,1,5397.994759,0.000370,1575423750,0,0,0,0,0,1
Raw,1490648213386,9645000000,0,0,-1172865753354928128,0,0,0,0,0,9,0,13,158562929718776,3,49,-713.890112,0.031748,4,46657.603361,340282346638528859811704183484516925440.000000,1176452801,0,0,0,0,0,1
Raw,1490648213386,9645000000,0,0,-1172865753354928128,0,0,0,0,0,8,0,3,14455870,16,29,-873.935670,0.163497,1,5733.966759,0.002955,1575424592,0,0,0,0,0,1
Raw,1490648213386,9645000000,0,0,-1172865753354928128,0,0,0,0,0,8,0,1,14455770,3,38,-873.901724,0.063164,1,886.149884,0.001413,1176453429,0,0,0,0,0,1
Raw,1490648213391,10645000000,0,0,-1172865753354928128,0,0,0,0,0,26,0,15,158563921397843,6,46,167.379813,0.030251,1,-1427.372710,0.000474,1575419120,0,0,0,0,0,1
Raw,1490648213391,10645000000,0,0,-1172865753354928128,0,0,0,0,0,26,0,13,158563921397834,3,46,166.186518,0.030251,4,-10600.961948,340282346638528859811704183484516925440.000000,1176449347,0,0,0,0,0,1
Raw,1490648213391,10645000000,0,0,-1172865753354928128,0,0,0,0,0,27,0,15,158563917527823,6,43,-840.960689,0.035350,1,7201.950731,0.000661,1575424419,0,0,0,0,0,1
Raw,1490648213391,10645000000,0,0,-1172865753354928128,0,0,0,0,0,27,0,13,158563917527802,3,46,-840.945215,0.033153,1,49068.408288,0.000598,1176453300,0,0,0,0,0,1
Raw,1490648213391,10645000000,0,0,-1172865753354928128,0,0,0,0,0,22,0,15,158563921381640,6,43,307.911171,0.030249,1,-2632.616438,0.000613,1575418381,0,0,0,0,0,1
Raw,1490648213391,10645000000,0,0,-1172865753354928128,0,0,0,0,0,16,0,15,158563928707712,6,47,-127.705627,0.031566,1,1099.681903,0.000394,1575420671,0,0,0,0,0,1
Raw,1490648213391,10645000000,0,0,-1172865753354928128,0,0,0,0,0,23,0,15,158563931492805,6,49,-364.069823,0.032067,1,3114.923173,0.000312,1575421913,0,0,0,0,0,1
Raw,1490648213391,10645000000,0,0,-1172865753354928128,0,0,0,0,0,3,0,15,158563926130083,6,46,227.552901,0.031103,1,-1943.248357,0.000460,1575418804,0,0,0,0,0,1
Raw,1490648213391,10645000000,0,0,-1172865753354928128,0,0,0,0,0,3,0,13,158563926130077,3,48,227.372878,0.031103,4,-1064.921193,340282346638528859811704183484516925440.000000,1176449107,0,0,0,0,0,1
Raw,1490648213391,10645000000,0,0,-1172865753354928128,0,0,0,0,0,2,0,15,158563914074977,68,21,-435.211566,0.401747,4,2860.098873,340282346638528859811704183484516925440.000000,1575422287,0,0,0,1,0,1
Raw,1490648213391,10645000000,0,0,-1172865753354928128,0,0,0,0,0,7,0,15,158563926891537,6,48,-721.329426,0.031240,1,6178.706810,0.000355,1575423790,0,0,0,0,0,1
Raw,1490648213391,10645000000,0,0,-1172865753354928128,0,0,0,0,0,6,0,15,158563918317664,6,42,-82.883609,0.040246,1,630.598900,0.000759,1575420435,0,0,0,0,0,1
Raw,1490648213391,10645000000,0,0,-1172865753354928128,0,0,0,0,0,6,0,13,158563918317638,3,40,-82.747433,0.051867,4,1.500745,340282346638528859811704183484516925440.000000,1176450324,0,0,0,0,0,1
Raw,1490648213391,10645000000,0,0,-1172865753354928128,0,0,0,0,0,9,0,15,158563929721161,6,48,-713.554604,0.031749,1,6111.582406,0.000371,1575423749,0,0,0,0,0,1
Raw,1490648213391,10645000000,0,0,-1172865753354928128,0,0,0,0,0,9,0,13,158563929721156,3,49,-713.563534,0.031749,4,6.381940,340282346638528859811704183484516925440.000000,1176452800,0,0,0,0,0,1
Raw,1490648213391,10645000000,0,0,-1172865753354928128,0,0,0,0,0,8,0,15,158563914458783,17,28,-873.916243,0.179627,1,6607.905981,0.003252,1575424592,0,0,0,0,0,1
Raw,1490648213391,10645000000,0,0,-1172865753354928128,0,0,0,0,0,8,0,13,158563914458723,3,38,-874.004108,0.062519,1,1760.099612,0.001398,1176453429,0,0,0,0,0,1
Raw,1490648213398,11645000000,0,0,-1172865753354928128,0,0,0,0,0,26,0,15,158564921397283,6,46,167.472995,0.030251,1,-1594.796764,0.000478,1575419119,0,0,0,0,0,1
Raw,1490648213398,11645000000,0,0,-1172865753354928128,0,0,0,0,0,26,0,13,158564921397282,3,46,167.462633,0.030251,4,-0.134628,340282346638528859811704183484516925440.000000,1176449342,0,0,0,0,0,1
Raw,1490648213398,11645000000,0,0,-1172865753354928128,0,0,0,0,0,27,0,15,158564917530633,6,43,-840.897432,0.035189,1,8042.880449,0.000658,1575424418,0,0,0,0,0,1
Raw,1490648213398,11645000000,0,0,-1172865753354928128,0,0,0,0,0,27,0,13,158564917530612,3,46,-840.866621,0.033153,1,49909.349771,0.000589,1176453299,0,0,0,0,0,1
Raw,1490648213398,11645000000,0,0,-1172865753354928128,0,0,0,0,0,22,0,15,158564921380610,6,44,307.953638,0.030248,1,-2940.532913,0.000592,1575418381,0,0,0,0,0,1
Raw,1490648213398,11645000000,0,0,-1172865753354928128,0,0,0,0,0,16,0,15,158564928708145,6,47,-127.535368,0.031566,1,1227.306281,0.000393,1575420670,0,0,0,0,0,1
Raw,1490648213398,11645000000,0,0,-1172865753354928128,0,0,0,0,0,23,0,15,158564931494023,6,49,-363.937004,0.032067,1,3478.886295,0.000327,1575421912,0,0,0,0,0,1
Raw,1490648213398,11645000000,0,0,-1172865753354928128,0,0,0,0,0,3,0,15,158564926129326,6,46,227.668100,0.031103,1,-2170.843551,0.000470,1575418803,0,0,0,0,0,1
Raw,1490648213398,11645000000,0,0,-1172865753354928128,0,0,0,0,0,3,0,13,158564926129307,3,49,226.270259,0.031103,4,-1291.178052,340282346638528859811704183484516925440.000000,1176449112,0,0,0,0,0,1
Raw,1490648213398,11645000000,0,0,-1172865753354928128,0,0,0,0,0,2,0,15,158564914076442,66,21,-435.094527,0.385712,4,3296.184757,340282346638528859811704183484516925440.000000,1575422286,0,0,0,0,0,1
Raw,1490648213398,11645000000,0,0,-1172865753354928128,0,0,0,0,0,7,0,15,158564926893946,6,48,-721.215250,0.031240,1,6899.988445,0.000353,1575423790,0,0,0,0,0,1
Raw,1490648213398,11645000000,0,0,-1172865753354928128,0,0,0,0,0,6,0,15,158564918317933,6,42,-82.752878,0.039255,1,713.424665,0.000738,1575420434,0,0,0,0,0,1
Raw,1490648213398,11645000000,0,0,-1172865753354928128,0,0,0,0,0,6,0,13,158564918317912,3,40,-82.845710,0.053396,1,84.342326,0.001169,1176450325,0,0,0,0,0,1
Raw,1490648213398,11645000000,0,0,-1172865753354928128,0,0,0,0,0,9,0,15,158564929723543,6,48,-713.456242,0.031749,1,6825.103252,0.000367,1575423749,0,0,0,0,0,1
Raw,1490648213398,11645000000,0,0,-1172865753354928128,0,0,0,0,0,9,0,13,158564929723537,3,49,-713.339203,0.031749,1,719.909230,0.000432,1176452799,0,0,0,0,0,1
Raw,1490648213398,11645000000,0,0,-1172865753354928128,0,0,0,0,0,8,0,15,158564914461692,16,28,-873.883933,0.169651,1,7481.863093,0.003068,1575424592,0,0,0,0,0,1
Raw,1490648213398,11645000000,0,0,-1172865753354928128,0,0,0,0,0,8,0,13,158564914461638,3,38,-873.797363,0.061888,1,2634.047200,0.001383,1176453428,0,0,0,0,0,1
Raw,1490648213405,12645000000,0,0,-1172865753354928128,0,0,0,0,0,26,0,15,158565921396719,6,46,167.601877,0.030251,1,-1762.346998,0.000471,1575419119,0,0,0,0,0,1
Raw,1490648213405,12645000000,0,0,-1172865753354928128,0,0,0,0,0,26,0,13,158565921396713,3,46,167.662442,0.030251,1,-167.680366,0.000622,1176449342,0,0,0,0,0,1
Raw,1490648213405,12645000000,0,0,-1172865753354928128,0,0,0,0,0,27,0,15,158565917533425,6,43,-840.789186,0.034939,1,8883.730583,0.000653,1575424418,0,0,0,0,0,1
Raw,1490648213405,12645000000,0,0,-1172865753354928128,0,0,0,0,0,27,0,13,158565917533405,3,46,-840.742493,0.033154,1,50750.199221,0.000589,1176453299,0,0,0,0,0,1
Raw,1490648213405,12645000000,0,0,-1172865753354928128,0,0,0,0,0,22,0,15,158565921379577,6,44,308.045967,0.030248,1,-3248.526900,0.000595,1575418381,0,0,0,0,0,1
Raw,1490648213405,12645000000,0,0,-1172865753354928128,0,0,0,0,0,16,0,15,158565928708561,6,47,-127.352567,0.031566,1,1354.750526,0.000393,1575420669,0,0,0,0,0,1
Raw,1490648213405,12645000000,0,0,-1172865753354928128,0,0,0,0,0,23,0,15,158565931495235,6,48,-363.791506,0.032068,1,3842.739339,0.000355,1575421911,0,0,0,0,0,1
Raw,1490648213405,12645000000,0,0,-1172865753354928128,0,0,0,0,0,3,0,15,158565926128563,6,46,227.789008,0.031102,1,-2398.552906,0.000461,1575418802,0,0,0,0,0,1
Raw,1490648213405,12645000000,0,0,-1172865753354928128,0,0,0,0,0,3,0,13,158565926128549,3,49,227.736180,0.031102,4,-1518.799993,340282346638528859811704183484516925440.000000,1176449106,0,0,0,0,0,1
Raw,1490648213405,12645000000,0,0,-1172865753354928128,0,0,0,0,0,2,0,15,158565914077892,69,21,-435.169270,0.415655,4,3731.838353,340282346638528859811704183484516925440.000000,1575422286,0,0,0,0,0,1
Raw,1490648213405,12645000000,0,0,-1172865753354928128,0,0,0,0,0,7,0,15,158565926896350,6,48,-721.115047,0.031240,1,7621.170086,0.000355,1575423789,0,0,0,0,0,1
Raw,1490648213405,12645000000,0,0,-1172865753354928128,0,0,0,0,0,6,0,15,158565918318212,6,42,-82.621345,0.038852,1,796.119936,0.000730,1575420434,0,0,0,0,0,1
Raw,1490648213405,12645000000,0,0,-1172865753354928128,0,0,0,0,0,6,0,13,158565918318193,3,40,-82.602557,0.053981,1,167.042184,0.001183,1176450324,0,0,0,0,0,1
Raw,1490648213405,12645000000,0,0,-1172865753354928128,0,0,0,0,0,9,0,15,158565929725922,6,48,-713.363129,0.031749,1,7538.529989,0.000360,1575423748,0,0,0,0,0,1
Raw,1490648213405,12645000000,0,0,-1172865753354928128,0,0,0,0,0,9,0,13,158565929725917,3,49,-713.307575,0.031749,1,1433.339417,0.000436,1176452799,0,0,0,0,0,1
Raw,1490648213405,12645000000,0,0,-1172865753354928128,0,0,0,0,0,8,0,15,158565914464610,16,29,-873.950257,0.167917,1,8355.811117,0.003037,1575424592,0,0,0,0,0,1
Raw,1490648213405,12645000000,0,0,-1172865753354928128,0,0,0,0,0,8,0,13,158565914464554,3,38,-873.970639,0.062516,1,3508.003722,0.001398,1176453429,0,0,0,0,0,1
Raw,1490648213411,13645000000,0,0,-1172865753354928128,0,0,0,0,0,26,0,15,158566921396160,6,46,167.686385,0.030251,1,-1929.991246,0.000473,1575419118,0,0,0,0,0,1
Raw,1490648213411,13645000000,0,0,-1172865753354928128,0,0,0,0,0,26,0,13,158566921396157,3,46,167.611659,0.030251,1,-335.316027,0.000627,1176449342,0,0,0,0,0,1
Raw,1490648213411,13645000000,0,0,-1172865753354928128,0,0,0,0,0,27,0,15,158566917536249,6,43,-840.776916,0.034673,1,9724.537611,0.000647,1575424418,0,0,0,0,0,1
Raw,1490648213411,13645000000,0,0,-1172865753354928128,0,0,0,0,0,27,0,13,158566917536215,3,46,-840.857419,0.033154,1,51591.023775,0.000585,1176453299,0,0,0,0,0,1
Raw,1490648213411,13645000000,0,0,-1172865753354928128,0,0,0,0,0,22,0,15,158566921378559,6,44,308.079436,0.030248,1,-3556.568471,0.000596,1575418381,0,0,0,0,0,1
Raw,1490648213411,13645000000,0,0,-1172865753354928128,0,0,0,0,0,16,0,15,158566928708985,6,47,-127.226453,0.031567,1,1482.042422,0.000392,1575420668,0,0,0,0,0,1
Raw,1490648213411,13645000000,0,0,-1172865753354928128,0,0,0,0,0,23,0,15,158566931496422,6,50,-363.711276,0.032068,1,4206.505783,0.000301,1575421911,0,0,0,0,0,1
Raw,1490648213411,13645000000,0,0,-1172865753354928128,0,0,0,0,0,3,0,15,158566926127799,6,46,227.830537,0.031102,1,-2626.347425,0.000456,1575418802,0,0,0,0,0,1
Raw,1490648213411,13645000000,0,0,-1172865753354928128,0,0,0,0,0,3,0,13,158566926127789,3,49,227.855145,0.031102,1,-1746.593956,0.000455,1176449105,0,0,0,0,0,1
Raw,1490648213411,13645000000,0,0,-1172865753354928128,0,0,0,0,0,2,0,15,158566914079379,70,20,-435.201444,0.424191,4,4168.492077,340282346638528859811704183484516925440.000000,1575422286,0,0,0,0,0,1
Raw,1490648213411,13645000000,0,0,-1172865753354928128,0,0,0,0,0,7,0,15,158566926898761,6,48,-721.084646,0.031241,1,8342.281102,0.000357,1575423789,0,0,0,0,0,1
Raw,1490648213411,13645000000,0,0,-1172865753354928128,0,0,0,0,0,6,0,15,158566918318487,6,42,-82.570605,0.039087,1,878.722937,0.000735,1575420433,0,0,0,0,0,1
Raw,1490648213411,13645000000,0,0,-1172865753354928128,0,0,0,0,0,6,0,13,158566918318463,3,39,-82.547522,0.056447,1,249.643795,0.001240,1176450323,0,0,0,0,0,1
Raw,1490648213411,13645000000,0,0,-1172865753354928128,0,0,0,0,0,9,0,15,158566929728303,6,48,-713.322571,0.031750,1,8251.892064,0.000359,1575423748,0,0,0,0,0,1
Raw,1490648213411,13645000000,0,0,-1172865753354928128,0,0,0,0,0,9,0,13,158566929728291,3,49,-713.413571,0.031750,1,2146.715663,0.000435,1176452799,0,0,0,0,0,1
Raw,1490648213411,13645000000,0,0,-1172865753354928128,0,0,0,0,0,8,0,15,158566914467491,16,29,-873.983999,0.164373,1,9229.762485,0.002971,1575424592,0,0,0,0,0,1
Raw,1490648213411,13645000000,0,0,-1172865753354928128,0,0,0,0,0,8,0,13,158566914467470,3,38,-873.952098,0.064010,1,4381.964485,0.001433,1176453429,0,0,0,0,0,1
Raw,1490648213418,14645000000,0,0,-1172865753354928128,0,0,0,0,0,26,0,15,158567921395610,6,46,167.822408,0.030251,1,-2097.736433,0.000468,1575419118,0,0,0,0,0,1
Raw,1490648213418,14645000000,0,0,-1172865753354928128,0,0,0,0,0,26,0,13,158567921395597,3,46,167.878712,0.030251,1,-503.062293,0.000626,1176449341,0,0,0,0,0,1
Raw,1490648213418,14645000000,0,0,-1172865753354928128,0,0,0,0,0,27,0,15,158567917539048,6,43,-840.703775,0.034770,1,10565.289819,0.000649,1575424417,0,0,0,0,0,1
Raw,1490648213418,14645000000,0,0,-1172865753354928128,0,0,0,0,0,27,0,13,158567917539018,3,46,-840.624704,0.033155,1,52431.774450,0.000578,1176453298,0,0,0,0,0,1
Raw,1490648213418,14645000000,0,0,-1172865753354928128,0,0,0,0,0,22,0,15,158567921377533,6,44,308.141023,0.030248,1,-3864.662246,0.000598,1575418380,0,0,0,0,0,1
Raw,1490648213418,14645000000,0,0,-1172865753354928128,0,0,0,0,0,16,0,15,158567928709419,6,47,-127.026679,0.031567,1,1609.175219,0.000398,1575420667,0,0,0,0,0,1
Raw,1490648213418,14645000000,0,0,-1172865753354928128,0,0,0,0,0,23,0,15,158567931497660,6,50,-363.618094,0.032068,1,4570.180710,0.000277,1575421910,0,0,0,0,0,1
Raw,1490648213418,14645000000,0,0,-1172865753354928128,0,0,0,0,0,3,0,15,158567926127045,6,46,227.944083,0.031102,1,-2854.235393,0.000461,1575418802,0,0,0,0,0,1
Raw,1490648213418,14645000000,0,0,-1172865753354928128,0,0,0,0,0,3,0,13,158567926127029,3,48,227.930603,0.031102,1,-1974.476617,0.000458,1176449105,0,0,0,0,0,1
Raw,1490648213418,14645000000,0,0,-1172865753354928128,0,0,0,0,0,2,0,15,158567914080820,70,20,-435.184164,0.425867,4,4604.871273,340282346638528859811704183484516925440.000000,1575422286,0,0,0,0,0,1
Raw,1490648213418,14645000000,0,0,-1172865753354928128,0,0,0,0,0,7,0,15,158567926901164,6,48,-720.961540,0.031241,1,9063.310724,0.000354,1575423788,0,0,0,0,0,1
Raw,1490648213418,14645000000,0,0,-1172865753354928128,0,0,0,0,0,6,0,15,158567918318750,6,42,-82.395906,0.038806,1,961.219251,0.000729,1575420432,0,0,0,0,0,1
Raw,1490648213418,14645000000,0,0,-1172865753354928128,0,0,0,0,0,6,0,13,158567918318746,3,39,-82.550726,0.057283,1,332.165173,0.001260,1176450323,0,0,0,0,0,1
Raw,1490648213418,14645000000,0,0,-1172865753354928128,0,0,0,0,0,9,0,15,158567929730686,6,48,-713.237774,0.031750,1,8965.184109,0.000359,1575423748,0,0,0,0,0,1
Raw,1490648213418,14645000000,0,0,-1172865753354928128,0,0,0,0,0,9,0,13,158567929730674,3,49,-713.268312,0.031750,1,2860.014887,0.000446,1176452799,0,0,0,0,0,1
Raw,1490648213418,14645000000,0,0,-1172865753354928128,0,0,0,0,0,8,0,15,158567914470411,17,28,-873.953529,0.176254,1,10103.729790,0.003190,1575424592,0,0,0,0,0,1
Raw,1490648213418,14645000000,0,0,-1172865753354928128,0,0,0,0,0,8,0,13,158567914470384,3,38,-873.936147,0.065194,1,5255.932625,0.001461,1176453429,0,0,0,0,0,1
Raw,1490648213426,15645000000,0,0,-1172865753354928128,0,0,0,0,0,26,0,15,158568921395042,6,46,167.928541,0.030251,1,-2265.619439,0.000469,1575419117,0,0,0,0,0,1
Raw,1490648213426,15645000000,0,0,-1172865753354928128,0,0,0,0,0,26,0,13,158568921395038,3,46,167.857820,0.030251,1,-670.936673,0.000625,1176449341,0,0,0,0,0,1
Raw,1490648213426,15645000000,0,0,-1172865753354928128,0,0,0,0,0,27,0,15,158568917541852,6,43,-840.643654,0.034314,1,11405.952355,0.000640,1575424417,0,0,0,0,0,1
Raw,1490648213426,15645000000,0,0,-1172865753354928128,0,0,0,0,0,27,0,13,158568917541819,3,46,-840.698527,0.033155,1,53272.447001,0.000580,1176453299,0,0,0,0,0,1
Raw,1490648213426,15645000000,0,0,-1172865753354928128,0,0,0,0,0,22,0,15,158568921376498,6,44,308.197498,0.030248,1,-4172.847480,0.000593,1575418380,0,0,0,0,0,1
Raw,1490648213426,15645000000,0,0,-1172865753354928128,0,0,0,0,0,16,0,15,158568928709836,6,47,-126.875983,0.031567,1,1736.116390,0.000394,1575420666,0,0,0,0,0,1
Raw,1490648213426,15645000000,0,0,-1172865753354928128,0,0,0,0,0,23,0,15,158568931498855,6,49,-363.463087,0.032068,1,4933.711364,0.000318,1575421910,0,0,0,0,0,1
Raw,1490648213426,15645000000,0,0,-1172865753354928128,0,0,0,0,0,3,0,15,158568926126290,6,46,228.041150,0.031102,1,-3082.252557,0.000466,1575418801,0,0,0,0,0,1
Raw,1490648213426,15645000000,0,0,-1172865753354928128,0,0,0,0,0,3,0,13,158568926126270,3,49,228.057356,0.031102,1,-2202.489821,0.000451,1176449105,0,0,0,0,0,1
Raw,1490648213426,15645000000,0,0,-1172865753354928128,0,0,0,0,0,2,0,15,158568914082275,70,20,-435.104138,0.423211,4,5040.026176,340282346638528859811704183484516925440.000000,1575422286,0,0,0,0,0,1
Raw,1490648213426,15645000000,0,0,-1172865753354928128,0,0,0,0,0,7,0,15,158568926903564,6,48,-720.899101,0.031242,1,9784.228920,0.000360,1575423788,0,0,0,0,0,1
Raw,1490648213426,15645000000,0,0,-1172865753354928128,0,0,0,0,0,6,0,15,158568918319032,6,42,-82.322578,0.037552,1,1043.578871,0.000704,1575420432,0,0,0,0,0,1
Raw,1490648213426,15645000000,0,0,-1172865753354928128,0,0,0,0,0,6,0,13,158568918319015,3,39,-82.180318,0.056203,1,414.508250,0.001235,1176450322,0,0,0,0,0,1
Raw,1490648213426,15645000000,0,0,-1172865753354928128,0,0,0,0,0,9,0,15,158568929733065,6,48,-713.162520,0.031751,1,9678.367025,0.000365,1575423747,0,0,0,0,0,1
Raw,1490648213426,15645000000,0,0,-1172865753354928128,0,0,0,0,0,9,0,13,158568929733055,3,49,-713.291147,0.031751,1,3573.203350,0.000438,1176452799,0,0,0,0,0,1
Raw,1490648213426,15645000000,0,0,-1172865753354928128,0,0,0,0,0,8,0,15,158568914473346,21,26,-874.012492,0.217630,1,10977.679675,0.003950,1575424592,0,0,0,0,0,1
Raw,1490648213426,15645000000,0,0,-1172865753354928128,0,0,0,0,0,8,0,13,158568914473301,3,37,-873.982499,0.068540,1,6129.874701,0.001539,1176453429,0,0,0,0,0,1
Raw,1490648213432,16645000000,0,0,-1172865753354928128,0,0,0,0,0,26,0,15,158569921394489,6,46,168.032032,0.030251,1,-2433.584575,0.000477,1575419116,0,0,0,0,0,1
Raw,1490648213432,16645000000,0,0,-1172865753354928128,0,0,0,0,0,26,0,13,158569921394478,3,46,168.054373,0.030251,1,-838.902543,0.000623,1176449340,0,0,0,0,0,1
Raw,1490648213432,16645000000,0,0,-1172865753354928128,0,0,0,0,0,27,0,15,158569917544659,6,43,-840.598665,0.034283,1,12246.581017,0.000639,1575424417,0,0,0,0,0,1
Raw,1490648213432,16645000000,0,0,-1172865753354928128,0,0,0,0,0,27,0,13,158569917544627,3,46,-840.552858,0.033156,1,54113.069020,0.000578,1176453298,0,0,0,0,0,1
Raw,1490648213432,16645000000,0,0,-1172865753354928128,0,0,0,0,0,22,0,15,158569921375468,6,44,308.278716,0.030247,1,-4481.068982,0.000589,1575418379,0,0,0,0,0,1
Raw,1490648213432,16645000000,0,0,-1172865753354928128,0,0,0,0,0,16,0,15,158569928710255,6,47,-126.692892,0.031567,1,1862.914432,0.000394,1575420665,0,0,0,0,0,1
Raw,1490648213432,16645000000,0,0,-1172865753354928128,0,0,0,0,0,23,0,15,158569931500072,6,50,-363.398637,0.032069,1,5297.195445,0.000287,1575421909,0,0,0,0,0,1
Raw,1490648213432,16645000000,0,0,-1172865753354928128,0,0,0,0,0,3,0,15,158569926125522,6,46,228.166982,0.031102,1,-3310.346104,0.000459,1575418800,0,0,0,0,0,1
Raw,1490648213432,16645000000,0,0,-1172865753354928128,0,0,0,0,0,3,0,13,158569926125508,3,49,228.187397,0.031102,1,-2430.582227,0.000441,1176449104,0,0,0,0,0,1
Raw,1490648213432,16645000000,0,0,-1172865753354928128,0,0,0,0,0,2,0,15,158569914083743,73,20,-434.914503,0.456865,4,5474.202235,340282346638528859811704183484516925440.000000,1575422285,0,0,0,0,0,1
Raw,1490648213432,16645000000,0,0,-1172865753354928128,0,0,0,0,0,7,0,15,158569926905970,6,48,-720.807487,0.031242,1,10505.084425,0.000350,1575423787,0,0,0,0,0,1
Raw,1490648213432,16645000000,0,0,-1172865753354928128,0,0,0,0,0,6,0,15,158569918319301,6,43,-82.223969,0.035829,1,1125.852501,0.000668,1575420432,0,0,0,0,0,1
Raw,1490648213432,16645000000,0,0,-1172865753354928128,0,0,0,0,0,6,0,13,158569918319294,3,39,-82.380288,0.058123,1,496.801115,0.001279,1176450323,0,0,0,0,0,1
Raw,1490648213432,16645000000,0,0,-1172865753354928128,0,0,0,0,0,9,0,15,158569929735441,6,48,-713.090060,0.031751,1,10391.498817,0.000368,1575423747,0,0,0,0,0,1
Raw,1490648213432,16645000000,0,0,-1172865753354928128,0,0,0,0,0,9,0,13,158569929735432,3,49,-713.080926,0.031751,1,4286.322525,0.000422,1176452798,0,0,0,0,0,1
Raw,1490648213432,16645000000,0,0,-1172865753354928128,0,0,0,0,0,8,0,15,158569914476292,24,25,-873.854554,0.244830,1,11851.628137,0.004449,1575424592,0,0,0,1,0,1
Raw,1490648213432,16645000000,0,0,-1172865753354928128,0,0,0,0,0,8,0,13,158569914476216,3,37,-873.874526,0.069552,1,7003.833437,0.001562,1176453429,0,0,0,0,0,1
Raw,1490648213438,17645000000,0,0,-1172865753354928128,0,0,0,0,0,26,0,15,158570921393925,6,46,168.107865,0.030251,1,-2601.657571,0.000476,1575419116,0,0,0,0,0,1
Raw,1490648213438,17645000000,0,0,-1172865753354928128,0,0,0,0,0,26,0,13,158570921393916,3,46,168.084280,0.030251,1,-1006.963451,0.000631,1176449340,0,0,0,0,0,1
Raw,1490648213438,17645000000,0,0,-1172865753354928128,0,0,0,0,0,27,0,15,158570917547459,6,43,-840.559129,0.033879,1,13087.146673,0.000631,1575424417,0,0,0,0,0,1
Raw,1490648213438,17645000000,0,0,-1172865753354928128,0,0,0,0,0,27,0,13,158570917547427,3,46,-840.552108,0.033156,1,54953.645531,0.000580,1176453298,0,0,0,0,0,1
Raw,1490648213438,17645000000,0,0,-1172865753354928128,0,0,0,0,0,22,0,15,158570921374439,6,44,308.271525,0.030247,1,-4789.347551,0.000583,1575418380,0,0,0,0,0,1
Raw,1490648213438,17645000000,0,0,-1172865753354928128,0,0,0,0,0,16,0,15,158570928710678,6,47,-126.590347,0.031567,1,1989.551569,0.000393,1575420665,0,0,0,0,0,1
Raw,1490648213438,17645000000,0,0,-1172865753354928128,0,0,0,0,0,23,0,15,158570931501281,6,49,-363.323008,0.032069,1,5660.552343,0.000313,1575421909,0,0,0,0,0,1
Raw,1490648213438,17645000000,0,0,-1172865753354928128,0,0,0,0,0,3,0,15,158570926124762,6,46,228.200672,0.031102,1,-3538.535187,0.000461,1575418800,0,0,0,0,0,1
Raw,1490648213438,17645000000,0,0,-1172865753354928128,0,0,0,0,0,3,0,13,158570926124747,3,49,228.093313,0.031102,1,-2658.754660,0.000438,1176449104,0,0,0,0,0,1
Raw,1490648213438,17645000000,0,0,-1172865753354928128,0,0,0,0,0,2,0,15,158570914085181,75,19,-434.540619,0.470158,4,5908.847051,340282346638528859811704183484516925440.000000,1575422283,0,0,0,0,0,1
Raw,1490648213438,17645000000,0,0,-1172865753354928128,0,0,0,0,0,7,0,15,158570926908375,6,48,-720.767065,0.031243,1,11225.854426,0.000354,1575423787,0,0,0,0,0,1
Raw,1490648213438,17645000000,0,0,-1172865753354928128,0,0,0,0,0,6,0,15,158570918319579,6,43,-82.133574,0.035810,1,1208.011103,0.000668,1575420431,0,0,0,0,0,1
Raw,1490648213438,17645000000,0,0,-1172865753354928128,0,0,0,0,0,6,0,13,158570918319567,3,39,-81.963000,0.059130,1,578.947109,0.001303,1176450321,0,0,0,0,0,1
Raw,1490648213438,17645000000,0,0,-1172865753354928128,0,0,0,0,0,9,0,15,158570929737825,6,48,-713.044662,0.031752,1,11104.550983,0.000367,1575423747,0,0,0,0,0,1
Raw,1490648213438,17645000000,0,0,-1172865753354928128,0,0,0,0,0,9,0,13,158570929737808,3,49,-713.011193,0.031752,1,4999.381975,0.000418,1176452798,0,0,0,0,0,1
Raw,1490648213438,17645000000,0,0,-1172865753354928128,0,0,0,0,0,8,0,15,158570914479197,27,24,-873.958301,0.277245,1,12725.604042,0.005045,1575424592,0,0,0,0,0,1
Raw,1490648213438,17645000000,0,0,-1172865753354928128,0,0,0,0,0,8,0,13,158570914479129,3,37,-874.095926,0.071390,1,7877.810877,0.001605,1176453430,0,0,0,0,0,1
Raw,1490648213445,18645000000,0,0,-1172865753354928128,0,0,0,0,0,26,0,15,158571921393363,6,46,168.173150,0.030251,1,-2769.790279,0.000475,1575419116,0,0,0,0,0,1
Raw,1490648213445,18645000000,0,0,-1172865753354928128,0,0,0,0,0,26,0,13,158571921393356,3,46,168.163130,0.030251,1,-1175.093925,0.000631,1176449340,0,0,0,0,0,1
Raw,1490648213445,18645000000,0,0,-1172865753354928128,0,0,0,0,0,27,0,15,158571917550267,6,43,-840.516049,0.034417,1,13927.697096,0.000642,1575424416,0,0,0,0,0,1
Raw,1490648213445,18645000000,0,0,-1172865753354928128,0,0,0,0,0,27,0,13,158571917550235,3,46,-840.537317,0.033157,1,55794.200432,0.000583,1176453298,0,0,0,0,0,1
Raw,1490648213445,18645000000,0,0,-1172865753354928128,0,0,0,0,0,22,0,15,158571921373410,6,44,308.310277,0.030247,1,-5097.644227,0.000581,1575418379,0,0,0,0,0,1
Raw,1490648213445,18645000000,0,0,-1172865753354928128,0,0,0,0,0,16,0,15,158571928711106,6,47,-126.439924,0.031567,1,2116.067071,0.000389,1575420664,0,0,0,0,0,1
Raw,1490648213445,18645000000,0,0,-1172865753354928128,0,0,0,0,0,23,0,15,158571931502484,6,49,-363.277270,0.032069,1,6023.848945,0.000309,1575421909,0,0,0,0,0,1
Raw,1490648213445,18645000000,0,0,-1172865753354928128,0,0,0,0,0,3,0,15,158571926124003,6,46,228.271871,0.031102,1,-3766.780549,0.000463,1575418800,0,0,0,0,0,1
Raw,1490648213445,18645000000,0,0,-1172865753354928128,0,0,0,0,0,3,0,13,158571926123987,3,48,228.364626,0.031102,1,-2887.009811,0.000462,1176449103,0,0,0,0,0,1
Raw,1490648213445,18645000000,0,0,-1172865753354928128,0,0,0,0,0,2,0,15,158571914086654,79,19,-434.618838,0.516513,4,6343.768572,340282346638528859811704183484516925440.000000,1575422283,0,0,0,0,0,1
Raw,1490648213445,18645000000,0,0,-1172865753354928128,0,0,0,0,0,7,0,15,158571926910775,6,48,-720.706194,0.031243,1,11946.586377,0.000350,1575423787,0,0,0,0,0,1
Raw,1490648213445,18645000000,0,0,-1172865753354928128,0,0,0,0,0,6,0,15,158571918319847,6,43,-82.061251,0.036126,1,1290.107908,0.000674,1575420431,0,0,0,0,0,1
Raw,1490648213445,18645000000,0,0,-1172865753354928128,0,0,0,0,0,6,0,13,158571918319837,3,39,-82.091133,0.060511,1,661.050191,0.001335,1176450322,0,0,0,0,0,1
Raw,1490648213445,18645000000,0,0,-1172865753354928128,0,0,0,0,0,9,0,15,158571929740205,6,48,-712.994289,0.031752,1,11817.572025,0.000370,1575423746,0,0,0,0,0,1
Raw,1490648213445,18645000000,0,0,-1172865753354928128,0,0,0,0,0,9,0,13,158571929740191,3,49,-712.997969,0.031752,1,5712.403273,0.000417,1176452797,0,0,0,0,0,1
Raw,1490648213445,18645000000,0,0,-1172865753354928128,0,0,0,0,0,8,0,15,158571914482087,29,24,-873.924014,0.293625,1,13599.605267,0.005345,1575424592,0,0,0,0,0,1
Raw,1490648213445,18645000000,0,0,-1172865753354928128,0,0,0,0,0,8,0,13,158571914482047,3,37,-873.930762,0.074642,1,8751.812039,0.001681,1176453429,0,0,0,0,0,1
Raw,1490648213452,19645000000,0,0,-1172865753354928128,0,0,0,0,0,26,0,15,158572921392802,6,46,168.287548,0.030251,1,-2938.035529,0.000471,1575419115,0,0,0,0,0,1
Raw,1490648213452,19645000000,0,0,-1172865753354928128,0,0,0,0,0,26,0,13,158572921392793,3,46,168.309037,0.030251,1,-1343.337503,0.000629,1176449339,0,0,0,0,0,1
Raw,1490648213452,19645000000,0,0,-1172865753354928128,0,0,0,0,0,27,0,15,158572917553070,6,43,-840.466902,0.034841,1,14768.190356,0.000651,1575424416,0,0,0,0,0,1
Raw,1490648213452,19645000000,0,0,-1172865753354928128,0,0,0,0,0,27,0,13,158572917553037,3,46,-840.424572,0.033157,1,56634.698528,0.000579,1176453298,0,0,0,0,0,1
Raw,1490648213452,19645000000,0,0,-1172865753354928128,0,0,0,0,0,22,0,15,158572921372384,6,44,308.368592,0.030247,1,-5406.002200,0.000575,1575418379,0,0,0,0,0,1
Raw,1490648213452,19645000000,0,0,-1172865753354928128,0,0,0,0,0,16,0,15,158572928711523,6,47,-126.279319,0.031567,1,2242.419759,0.000387,1575420663,0,0,0,0,0,1
Raw,1490648213452,19645000000,0,0,-1172865753354928128,0,0,0,0,0,23,0,15,158572931503713,6,49,-363.125330,0.032069,1,6387.055618,0.000326,1575421908,0,0,0,0,0,1
Raw,1490648213452,19645000000,0,0,-1172865753354928128,0,0,0,0,0,3,0,15,158572926123234,6,46,228.391108,0.031101,1,-3995.126928,0.000458,1575418799,0,0,0,0,0,1
Raw,1490648213452,19645000000,0,0,-1172865753354928128,0,0,0,0,0,3,0,13,158572926123219,3,49,228.293905,0.031101,1,-3115.340326,0.000452,1176449104,0,0,0,0,0,1
Raw,1490648213452,19645000000,0,0,-1172865753354928128,0,0,0,0,0,2,0,15,158572914088106,78,19,-434.421023,0.500600,4,6778.587774,340282346638528859811704183484516925440.000000,1575422282,0,0,0,1,0,1
Raw,1490648213452,19645000000,0,0,-1172865753354928128,0,0,0,0,0,7,0,15,158572926913179,6,48,-720.609673,0.031244,1,12667.230351,0.000352,1575423786,0,0,0,0,0,1
Raw,1490648213452,19645000000,0,0,-1172865753354928128,0,0,0,0,0,6,0,15,158572918320131,6,43,-81.941110,0.035819,1,1372.091763,0.000668,1575420430,0,0,0,0,0,1
Raw,1490648213452,19645000000,0,0,-1172865753354928128,0,0,0,0,0,6,0,13,158572918320116,3,40,-81.942508,0.054894,1,743.041102,0.001204,1176450321,0,0,0,0,0,1
Raw,1490648213452,19645000000,0,0,-1172865753354928128,0,0,0,0,0,9,0,15,158572929742575,6,48,-712.912218,0.031752,1,12530.512434,0.000373,1575423746,0,0,0,0,0,1
Raw,1490648213452,19645000000,0,0,-1172865753354928128,0,0,0,0,0,9,0,13,158572929742561,3,49,-712.904038,0.031752,1,6425.350636,0.000426,1176452797,0,0,0,0,0,1
Raw,1490648213452,19645000000,0,0,-1172865753354928128,0,0,0,0,0,8,0,15,158572914485003,28,24,-873.963549,0.284340,1,14473.615253,0.005175,1575424592,0,0,0,0,0,1
Raw,1490648213452,19645000000,0,0,-1172865753354928128,0,0,0,0,0,8,0,13,158572914484962,3,36,-874.108468,0.077773,1,9625.833056,0.001754,1176453430,0,0,0,0,0,1
Raw,1490648213458,20645000000,0,0,-1172865753354928128,0,0,0,0,0,26,0,15,158573921392238,6,46,168.343120,0.030250,1,-3106.341156,0.000478,1575419115,0,0,0,0,0,1
Raw,1490648213458,20645000000,0,0,-1172865753354928128,0,0,0,0,0,26,0,13,158573921392234,3,46,168.314763,0.030250,1,-1511.642131,0.000626,1176449339,0,0,0,0,0,1
Raw,1490648213458,20645000000,0,0,-1172865753354928128,0,0,0,0,0,27,0,15,158573917555866,6,43,-840.426753,0.034084,1,15608.664405,0.000635,1575424416,0,0,0,0,0,1
Raw,1490648213458,20645000000,0,0,-1172865753354928128,0,0,0,0,0,27,0,13,158573917555842,3,46,-840.492532,0.033158,1,57475.179679,0.000579,1176453298,0,0,0,0,0,1
Raw,1490648213458,20645000000,0,0,-1172865753354928128,0,0,0,0,0,22,0,15,158573921371357,6,44,308.386144,0.030247,1,-5714.374335,0.000582,1575418379,0,0,0,0,0,1
Raw,1490648213458,20645000000,0,0,-1172865753354928128,0,0,0,0,0,16,0,15,158573928711948,6,47,-126.161112,0.031567,1,2368.652002,0.000389,1575420662,0,0,0,0,0,1
Raw,1490648213458,20645000000,0,0,-1172865753354928128,0,0,0,0,0,23,0,15,158573931504903,6,49,-363.114969,0.032069,1,6750.221194,0.000304,1575421908,0,0,0,0,0,1
Raw,1490648213458,20645000000,0,0,-1172865753354928128,0,0,0,0,0,3,0,15,158573926122473,6,46,228.445742,0.031101,1,-4223.524032,0.000453,1575418799,0,0,0,0,0,1
Raw,1490648213458,20645000000,0,0,-1172865753354928128,0,0,0,0,0,3,0,13,158573926122463,3,49,228.394806,0.031101,1,-3343.736445,0.000452,1176449103,0,0,0,0,0,1
Raw,1490648213458,20645000000,0,0,-1172865753354928128,0,0,0,0,0,2,0,15,158573914089537,82,18,-434.196727,0.555163,4,7213.101874,340282346638528859811704183484516925440.000000,1575422281,0,0,0,1,0,1
Raw,1490648213458,20645000000,0,0,-1172865753354928128,0,0,0,0,0,7,0,15,158573926915587,6,48,-720.589905,0.031244,1,13387.839367,0.000357,1575423786,0,0,0,0,0,1
Raw,1490648213458,20645000000,0,0,-1172865753354928128,0,0,0,0,0,6,0,15,158573918320410,6,42,-81.901123,0.036823,1,1454.014874,0.000689,1575420430,0,0,0,0,0,1
Raw,1490648213458,20645000000,0,0,-1172865753354928128,0,0,0,0,0,6,0,13,158573918320384,3,40,-81.876013,0.050586,1,824.964098,0.001104,1176450321,0,0,0,0,0,1
Raw,1490648213458,20645000000,0,0,-1172865753354928128,0,0,0,0,0,9,0,15,158573929744956,6,48,-712.870160,0.031753,1,13243.423240,0.000375,1575423746,0,0,0,0,0,1
Raw,1490648213458,20645000000,0,0,-1172865753354928128,0,0,0,0,0,9,0,13,158573929744941,3,50,-712.888088,0.031753,1,7138.263341,0.000404,1176452797,0,0,0,0,0,1
Raw,1490648213458,20645000000,0,0,-1172865753354928128,0,0,0,0,0,8,0,15,158573914487926,30,23,-874.142619,0.304299,1,15347.682009,0.005541,1575424593,0,0,0,0,0,1
Raw,1490648213458,20645000000,0,0,-1172865753354928128,0,0,0,0,0,8,0,13,158573914487878,3,36,-874.075544,0.078682,1,10499.886806,0.001775,1176453430,0,0,0,0,0,1
Raw,1490648213465,21645000000,0,0,-1172865753354928128,0,0,0,0,0,26,0,15,158574921391681,6,45,168.468901,0.030250,1,-3274.752329,0.000481,1575419114,0,0,0,0,0,1
Raw,1490648213465,21645000000,0,0,-1172865753354928128,0,0,0,0,0,26,0,13,158574921391670,3,46,168.449508,0.030250,1,-1680.042821,0.000621,1176449338,0,0,0,0,0,1
Raw,1490648213465,21645000000,0,0,-1172865753354928128,0,0,0,0,0,27,0,15,158574917558674,6,43,-840.396147,0.033946,1,16449.086986,0.000632,1575424416,0,0,0,0,0,1
Raw,1490648213465,21645000000,0,0,-1172865753354928128,0,0,0,0,0,27,0,13,158574917558645,3,46,-840.381764,0.033158,1,58315.602644,0.000580,1176453297,0,0,0,0,0,1
Raw,1490648213465,21645000000,0,0,-1172865753354928128,0,0,0,0,0,22,0,15,158574921370335,6,44,308.458433,0.030246,1,-6022.800942,0.000603,1575418379,0,0,0,0,0,1
Raw,1490648213465,21645000000,0,0,-1172865753354928128,0,0,0,0,0,16,0,15,158574928712362,6,47,-125.996128,0.031567,1,2494.725784,0.000387,1575420662,0,0,0,0,0,1
Raw,1490648213465,21645000000,0,0,-1172865753354928128,0,0,0,0,0,23,0,15,158574931506114,6,49,-363.007064,0.032070,1,7113.264461,0.000315,1575421907,0,0,0,0,0,1
Raw,1490648213465,21645000000,0,0,-1172865753354928128,0,0,0,0,0,3,0,15,158574926121715,6,46,228.549200,0.031101,1,-4452.017458,0.000456,1575418798,0,0,0,0,0,1
Raw,1490648213465,21645000000,0,0,-1172865753354928128,0,0,0,0,0,3,0,13,158574926121700,3,48,228.553835,0.031101,1,-3572.229469,0.000456,1176449103,0,0,0,0,0,1
Raw,1490648213465,21645000000,0,0,-1172865753354928128,0,0,0,0,0,2,0,15,158574914090985,77,19,-434.368605,0.497714,4,7648.423294,340282346638528859811704183484516925440.000000,1575422282,0,0,0,1,0,1
Raw,1490648213465,21645000000,0,0,-1172865753354928128,0,0,0,0,0,7,0,15,158574926917982,6,48,-720.482272,0.031244,1,14108.361778,0.000360,1575423786,0,0,0,0,0,1
Raw,1490648213465,21645000000,0,0,-1172865753354928128,0,0,0,0,0,6,0,15,158574918320676,6,42,-81.753742,0.036948,1,1535.827092,0.000691,1575420429,0,0,0,0,0,1
Raw,1490648213465,21645000000,0,0,-1172865753354928128,0,0,0,0,0,6,0,13,158574918320661,3,40,-81.825230,0.051469,1,906.791237,0.001124,1176450321,0,0,0,0,0,1
Raw,1490648213465,21645000000,0,0,-1172865753354928128,0,0,0,0,0,9,0,15,158574929747337,6,48,-712.805335,0.031753,1,13956.259065,0.000377,1575423745,0,0,0,0,0,1
Raw,1490648213465,21645000000,0,0,-1172865753354928128,0,0,0,0,0,9,0,13,158574929747320,3,49,-712.677663,0.031753,1,7851.093513,0.000430,1176452796,0,0,0,0,0,1
Raw,1490648213465,21645000000,0,0,-1172865753354928128,0,0,0,0,0,8,0,15,158574914490850,31,23,-874.035941,0.314624,1,16221.738661,0.005731,1575424593,0,0,0,0,0,1
Raw,1490648213465,21645000000,0,0,-1172865753354928128,0,0,0,0,0,8,0,13,158574914490789,3,36,-874.007720,0.081750,1,11373.946419,0.001847,1176453429,0,0,0,0,0,1
Raw,1490648213472,22645000000,0,0,-1172865753354928128,0,0,0,0,0,26,0,15,158575921391124,6,45,168.557345,0.030250,1,-3443.280004,0.000488,1575419114,0,0,0,0,0,1
Raw,1490648213472,22645000000,0,0,-1172865753354928128,0,0,0,0,0,26,0,13,158575921391109,3,46,168.514895,0.030250,1,-1848.569901,0.000625,1176449338,0,0,0,0,0,1
Raw,1490648213472,22645000000,0,0,-1172865753354928128,0,0,0,0,0,27,0,15,158575917561475,6,43,-840.317212,0.033526,1,17289.431401,0.000624,1575424415,0,0,0,0,0,1
Raw,1490648213472,22645000000,0,0,-1172865753354928128,0,0,0,0,0,27,0,13,158575917561448,3,46,-840.321234,0.033159,1,59155.952072,0.000591,1176453297,0,0,0,0,0,1
Raw,1490648213472,22645000000,0,0,-1172865753354928128,0,0,0,0,0,22,0,15,158575921369303,6,43,308.512283,0.030559,1,-6331.302049,0.000623,1575418378,0,0,0,0,0,1
Raw,1490648213472,22645000000,0,0,-1172865753354928128,0,0,0,0,0,16,0,15,158575928712789,6,47,-125.831944,0.031567,1,2620.620327,0.000384,1575420661,0,0,0,0,0,1
Raw,1490648213472,22645000000,0,0,-1172865753354928128,0,0,0,0,0,23,0,15,158575931507334,6,50,-362.923221,0.032070,1,7476.209060,0.000287,1575421907,0,0,0,0,0,1
Raw,1490648213472,22645000000,0,0,-1172865753354928128,0,0,0,0,0,3,0,15,158575926120950,6,46,228.643557,0.031101,1,-4680.624602,0.000453,1575418798,0,0,0,0,0,1
Raw,1490648213472,22645000000,0,0,-1172865753354928128,0,0,0,0,0,3,0,13,158575926120939,3,48,228.622136,0.031101,1,-3800.824387,0.000470,1176449102,0,0,0,0,0,1
Raw,1490648213472,22645000000,0,0,-1172865753354928128,0,0,0,0,0,2,0,15,158575914092434,82,18,-434.225288,0.555455,4,8083.307909,340282346638528859811704183484516925440.000000,1575422281,0,0,0,1,0,1
Raw,1490648213472,22645000000,0,0,-1172865753354928128,0,0,0,0,0,7,0,15,158575926920390,6,48,-720.395362,0.031245,1,14828.789461,0.000347,1575423785,0,0,0,0,0,1
Raw,1490648213472,22645000000,0,0,-1172865753354928128,0,0,0,0,0,6,0,15,158575918320949,6,42,-81.669064,0.036400,1,1617.518653,0.000680,1575420429,0,0,0,0,0,1
Raw,1490648213472,22645000000,0,0,-1172865753354928128,0,0,0,0,0,6,0,13,158575918320932,3,40,-81.561491,0.054439,1,988.476353,0.001193,1176450320,0,0,0,0,0,1
Raw,1490648213472,22645000000,0,0,-1172865753354928128,0,0,0,0,0,9,0,15,158575929749711,6,48,-712.716244,0.031754,1,14669.002268,0.000377,1575423745,0,0,0,0,0,1
Raw,1490648213472,22645000000,0,0,-1172865753354928128,0,0,0,0,0,9,0,13,158575929749695,3,49,-712.743646,0.031754,1,8563.862446,0.000414,1176452796,0,0,0,0,0,1
Raw,1490648213472,22645000000,0,0,-1172865753354928128,0,0,0,0,0,8,0,15,158575914493782,30,23,-874.043439,0.306005,1,17095.791082,0.005573,1575424593,0,0,0,1,0,1
Raw,1490648213472,22645000000,0,0,-1172865753354928128,0,0,0,0,0,8,0,13,158575914493704,3,36,-874.092449,0.083318,1,12248.009967,0.001883,1176453430,0,0,0,0,0,1
Raw,1490648213478,23645000000,0,0,-1172865753354928128,0,0,0,0,0,26,0,15,158576921390557,6,45,168.583588,0.030250,1,-3611.849644,0.000485,1575419114,0,0,0,0,0,1
Raw,1490648213478,23645000000,0,0,-1172865753354928128,0,0,0,0,0,26,0,13,158576921390546,3,46,168.624249,0.030250,1,-2017.138392,0.000625,1176449338,0,0,0,0,0,1
Raw,1490648213478,23645000000,0,0,-1172865753354928128,0,0,0,0,0,27,0,15,158576917564279,6,43,-840.339570,0.033728,1,18129.787017,0.000628,1575424416,0,0,0,0,0,1
Raw,1490648213478,23645000000,0,0,-1172865753354928128,0,0,0,0,0,27,0,13,158576917564248,3,46,-840.293968,0.033159,1,59996.310988,0.000588,1176453297,0,0,0,0,0,1
Raw,1490648213478,23645000000,0,0,-1172865753354928128,0,0,0,0,0,22,0,15,158576921368276,6,43,308.507035,0.030926,1,-6639.797211,0.000630,1575418378,0,0,0,0,0,1
Raw,1490648213478,23645000000,0,0,-1172865753354928128,0,0,0,0,0,16,0,15,158576928713205,6,47,-125.757031,0.031567,1,2746.419855,0.000386,1575420660,0,0,0,0,0,1
Raw,1490648213478,23645000000,0,0,-1172865753354928128,0,0,0,0,0,23,0,15,158576931508547,6,50,-362.920801,0.032070,1,7839.104082,0.000289,1575421907,0,0,0,0,0,1
Raw,1490648213478,23645000000,0,0,-1172865753354928128,0,0,0,0,0,3,0,15,158576926120181,6,46,228.675288,0.031101,1,-4909.263603,0.000449,1575418798,0,0,0,0,0,1
Raw,1490648213478,23645000000,0,0,-1172865753354928128,0,0,0,0,0,3,0,13,158576926120175,3,49,228.588190,0.031101,1,-4029.454900,0.000436,1176449102,0,0,0,0,0,1
Raw,1490648213478,23645000000,0,0,-1172865753354928128,0,0,0,0,0,2,0,15,158576914093883,88,17,-434.201294,0.630336,4,8517.545856,340282346638528859811704183484516925440.000000,1575422281,0,0,0,0,0,1
Raw,1490648213478,23645000000,0,0,-1172865753354928128,0,0,0,0,0,7,0,15,158576926922793,6,48,-720.419220,0.031245,1,15549.201758,0.000353,1575423785,0,0,0,0,0,1
Raw,1490648213478,23645000000,0,0,-1172865753354928128,0,0,0,0,0,6,0,15,158576918321223,6,43,-81.622908,0.035259,1,1699.167446,0.000656,1575420428,0,0,0,0,0,1
Raw,1490648213478,23645000000,0,0,-1172865753354928128,0,0,0,0,0,6,0,13,158576918321208,3,39,-81.651222,0.060466,1,1070.131343,0.001334,1176450320,0,0,0,0,0,1
Raw,1490648213478,23645000000,0,0,-1172865753354928128,0,0,0,0,0,9,0,15,158576929752091,6,48,-712.726809,0.031754,1,15381.736042,0.000378,1575423745,0,0,0,0,0,1
Raw,1490648213478,23645000000,0,0,-1172865753354928128,0,0,0,0,0,9,0,13,158576929752079,3,49,-712.817469,0.031754,1,9276.600957,0.000431,1176452797,0,0,0,0,0,1
Raw,1490648213478,23645000000,0,0,-1172865753354928128,0,0,0,0,0,8,0,15,158576914496667,27,24,-874.118488,0.276350,1,17969.903271,0.005028,1575424593,0,0,0,0,0,1
Raw,1490648213478,23645000000,0,0,-1172865753354928128,0,0,0,0,0,8,0,13,158576914496623,3,36,-874.050869,0.085016,1,13122.123253,0.001923,1176453429,0,0,0,0,0,1
Raw,1490648213484,24645000000,0,0,-1172865753354928128,0,0,0,0,0,26,0,15,158577921389988,6,45,168.670124,0.030250,1,-3780.482468,0.000483,1575419113,0,0,0,0,0,1
Raw,1490648213484,24645000000,0,0,-1172865753354928128,0,0,0,0,0,26,0,13,158577921389983,3,46,168.645192,0.030250,1,-2185.760604,0.000627,1176449338,0,0,0,0,0,1
Raw,1490648213484,24645000000,0,0,-1172865753354928128,0,0,0,0,0,27,0,15,158577917567080,6,43,-840.312986,0.033453,1,18970.125608,0.000622,1575424415,0,0,0,0,0,1
Raw,1490648213484,24645000000,0,0,-1172865753354928128,0,0,0,0,0,27,0,13,158577917567054,3,46,-840.321438,0.033160,1,60836.658208,0.000579,1176453297,0,0,0,0,0,1
Raw,1490648213484,24645000000,0,0,-1172865753354928128,0,0,0,0,0,22,0,15,158577921367243,6,43,308.534130,0.030955,1,-6948.305968,0.000631,1575418378,0,0,0,0,0,1
Raw,1490648213484,24645000000,0,0,-1172865753354928128,0,0,0,0,0,16,0,15,158577928713623,6,47,-125.607715,0.031567,1,2872.097361,0.000384,1575420660,0,0,0,0,0,1
Raw,1490648213484,24645000000,0,0,-1172865753354928128,0,0,0,0,0,23,0,15,158577931509753,6,50,-362.811567,0.032070,1,8201.959643,0.000300,1575421906,0,0,0,0,0,1
Raw,1490648213484,24645000000,0,0,-1172865753354928128,0,0,0,0,0,3,0,15,158577926119424,6,46,228.735631,0.031101,1,-5137.955006,0.000454,1575418797,0,0,0,0,0,1
Raw,1490648213484,24645000000,0,0,-1172865753354928128,0,0,0,0,0,3,0,13,158577926119410,3,49,228.747849,0.031101,1,-4258.147644,0.000454,1176449102,0,0,0,0,0,1
Raw,1490648213484,24645000000,0,0,-1172865753354928128,0,0,0,0,0,2,0,15,158577914095332,94,16,-434.129959,0.726839,4,8952.021669,340282346638528859811704183484516925440.000000,1575422281,0,0,0,1,0,1
Raw,1490648213484,24645000000,0,0,-1172865753354928128,0,0,0,0,0,7,0,15,158577926925195,6,49,-720.334150,0.031246,1,16269.567770,0.000338,1575423785,0,0,0,0,0,1
Raw,1490648213484,24645000000,0,0,-1172865753354928128,0,0,0,0,0,6,0,15,158577918321496,6,43,-81.543436,0.035108,1,1780.750305,0.000653,1575420428,0,0,0,0,0,1
Raw,1490648213484,24645000000,0,0,-1172865753354928128,0,0,0,0,0,6,0,13,158577918321479,3,39,-81.515761,0.059301,1,1151.714049,0.001307,1176450319,0,0,0,0,0,1
Raw,1490648213484,24645000000,0,0,-1172865753354928128,0,0,0,0,0,9,0,15,158577929754468,6,48,-712.672618,0.031755,1,16094.437537,0.000381,1575423745,0,0,0,0,0,1
Raw,1490648213484,24645000000,0,0,-1172865753354928128,0,0,0,0,0,9,0,13,158577929754455,3,50,-712.669006,0.031755,1,9989.302325,0.000385,1176452796,0,0,0,0,0,1
Raw,1490648213484,24645000000,0,0,-1172865753354928128,0,0,0,0,0,8,0,15,158577914499538,25,25,-874.055913,0.251675,1,18844.053920,0.004575,1575424593,0,0,0,1,0,1
Raw,1490648213484,24645000000,0,0,-1172865753354928128,0,0,0,0,0,8,0,13,158577914499535,3,36,-874.221417,0.084736,1,13996.297011,0.001916,1176453430,0,0,0,0,0,1
Raw,1490648213494,25645000000,0,0,-1172865753354928128,0,0,0,0,0,26,0,15,158578921389428,6,45,168.786089,0.030250,1,-3949.216782,0.000487,1575419113,0,0,0,0,0,1
Raw,1490648213494,25645000000,0,0,-1172865753354928128,0,0,0,0,0,26,0,13,158578921389421,3,46,168.784130,0.030250,1,-2354.494618,0.000623,1176449337,0,0,0,0,0,1
Raw,1490648213494,25645000000,0,0,-1172865753354928128,0,0,0,0,0,27,0,15,158578917569880,6,43,-840.242708,0.033454,1,19810.408916,0.000622,1575424415,0,0,0,0,0,1
Raw,1490648213494,25645000000,0,0,-1172865753354928128,0,0,0,0,0,27,0,13,158578917569857,3,46,-840.264384,0.033160,1,61676.945732,0.000585,1176453297,0,0,0,0,0,1
Raw,1490648213494,25645000000,0,0,-1172865753354928128,0,0,0,0,0,22,0,15,158578921366215,6,43,308.595785,0.030246,1,-7256.868491,0.000608,1575418378,0,0,0,0,0,1
Raw,1490648213494,25645000000,0,0,-1172865753354928128,0,0,0,0,0,16,0,15,158578928714044,6,47,-125.438078,0.031567,1,2997.618673,0.000387,1575420659,0,0,0,0,0,1
Raw,1490648213494,25645000000,0,0,-1172865753354928128,0,0,0,0,0,23,0,15,158578931510960,6,50,-362.713546,0.032071,1,8564.705096,0.000280,1575421906,0,0,0,0,0,1
Raw,1490648213494,25645000000,0,0,-1172865753354928128,0,0,0,0,0,3,0,15,158578926118669,6,46,228.830465,0.031101,1,-5366.739556,0.000459,1575418797,0,0,0,0,0,1
Raw,1490648213494,25645000000,0,0,-1172865753354928128,0,0,0,0,0,3,0,13,158578926118648,3,49,228.829869,0.031101,1,-4486.928466,0.000445,1176449102,0,0,0,0,0,1
Raw,1490648213494,25645000000,0,0,-1172865753354928128,0,0,0,0,0,2,0,15,158578914096778,91,16,-433.861287,0.673917,4,9385.572118,340282346638528859811704183484516925440.000000,1575422279,0,0,0,1,0,1
Raw,1490648213494,25645000000,0,0,-1172865753354928128,0,0,0,0,0,7,0,15,158578926927596,6,48,-720.250307,0.031246,1,16989.856287,0.000341,1575423784,0,0,0,0,0,1
Raw,1490648213494,25645000000,0,0,-1172865753354928128,0,0,0,0,0,6,0,15,158578918321769,6,43,-81.425340,0.035913,1,1862.227929,0.000670,1575420427,0,0,0,0,0,1
Raw,1490648213494,25645000000,0,0,-1172865753354928128,0,0,0,0,0,6,0,13,158578918321750,3,40,-81.458434,0.054666,1,1233.201128,0.001199,1176450319,0,0,0,0,0,1
Raw,1490648213494,25645000000,0,0,-1172865753354928128,0,0,0,0,0,9,0,15,158578929756841,6,47,-712.581005,0.031755,1,16807.064493,0.000383,1575423744,0,0,0,0,0,1
Raw,1490648213494,25645000000,0,0,-1172865753354928128,0,0,0,0,0,9,0,13,158578929756833,3,50,-712.605476,0.031755,1,10701.928701,0.000390,1176452796,0,0,0,0,0,1
Raw,1490648213494,25645000000,0,0,-1172865753354928128,0,0,0,0,0,8,0,15,158578914502459,24,25,-874.167226,0.242176,1,19718.229683,0.004400,1575424593,0,0,0,1,0,1
Raw,1490648213494,25645000000,0,0,-1172865753354928128,0,0,0,0,0,8,0,13,158578914502455,3,35,-874.257954,0.087338,1,14870.477658,0.001977,1176453430,0,0,0,0,0,1
Raw,1490648213500,26645000000,0,0,-1172865753354928128,0,0,0,0,0,26,0,15,158579921388859,6,45,168.869216,0.030250,1,-4118.041756,0.000489,1575419112,0,0,0,0,0,1
Raw,1490648213500,26645000000,0,0,-1172865753354928128,0,0,0,0,0,26,0,13,158579921388857,3,46,168.904509,0.030250,1,-2523.314449,0.000625,1176449337,0,0,0,0,0,1
Raw,1490648213500,26645000000,0,0,-1172865753354928128,0,0,0,0,0,27,0,15,158579917572683,6,43,-840.201945,0.033161,1,20650.649842,0.000609,1575424415,0,0,0,0,0,1
Raw,1490648213500,26645000000,0,0,-1172865753354928128,0,0,0,0,0,27,0,13,158579917572660,3,46,-840.199696,0.033161,1,62517.189427,0.000574,1176453297,0,0,0,0,0,1
Raw,1490648213500,26645000000,0,0,-1172865753354928128,0,0,0,0,0,22,0,15,158579921365183,6,44,308.639615,0.030246,1,-7565.471938,0.000592,1575418378,0,0,0,0,0,1
Raw,1490648213500,26645000000,0,0,-1172865753354928128,0,0,0,0,0,16,0,15,158579928714464,6,47,-125.290212,0.031568,1,3122.993343,0.000388,1575420658,0,0,0,0,0,1
Raw,1490648213500,26645000000,0,0,-1172865753354928128,0,0,0,0,0,23,0,15,158579931512176,6,50,-362.600801,0.032071,1,8927.380185,0.000292,1575421905,0,0,0,0,0,1
Raw,1490648213500,26645000000,0,0,-1172865753354928128,0,0,0,0,0,3,0,15,158579926117895,6,46,228.909724,0.031100,1,-5595.604164,0.000454,1575418797,0,0,0,0,0,1
Raw,1490648213500,26645000000,0,0,-1172865753354928128,0,0,0,0,0,3,0,13,158579926117886,3,49,228.892410,0.031100,1,-4715.791528,0.000446,1176449101,0,0,0,0,0,1
Raw,1490648213500,26645000000,0,0,-1172865753354928128,0,0,0,0,0,2,0,15,158579914098225,98,15,-433.800348,0.793852,4,9818.250439,340282346638528859811704183484516925440.000000,1575422279,0,0,0,1,0,1
Raw,1490648213500,26645000000,0,0,-1172865753354928128,0,0,0,0,0,7,0,15,158579926929995,6,49,-720.170213,0.031247,1,17710.080177,0.000339,1575423784,0,0,0,0,0,1
Raw,1490648213500,26645000000,0,0,-1172865753354928128,0,0,0,0,0,6,0,15,158579918322040,6,43,-81.325964,0.035855,1,1943.613118,0.000669,1575420427,0,0,0,0,0,1
Raw,1490648213500,26645000000,0,0,-1172865753354928128,0,0,0,0,0,6,0,13,158579918322021,3,40,-81.269618,0.051551,1,1314.588608,0.001126,1176450318,0,0,0,0,0,1
Raw,1490648213500,26645000000,0,0,-1172865753354928128,0,0,0,0,0,9,0,15,158579929759222,6,48,-712.527495,0.031755,1,17519.635174,0.000376,1575423744,0,0,0,0,0,1
Raw,1490648213500,26645000000,0,0,-1172865753354928128,0,0,0,0,0,9,0,13,158579929759203,3,49,-712.545900,0.031755,1,11414.514521,0.000445,1176452796,0,0,0,0,0,1
Raw,1490648213500,26645000000,0,0,-1172865753354928128,0,0,0,0,0,8,0,15,158579914505379,22,26,-874.215419,0.224193,1,20592.414166,0.004070,1575424594,0,0,0,0,0,1
Raw,1490648213500,26645000000,0,0,-1172865753354928128,0,0,0,0,0,8,0,13,158579914505368,3,36,-874.057208,0.084412,1,15744.656752,0.001909,1176453429,0,0,0,0,0,1
Raw,1490648213507,27645000000,0,0,-1172865753354928128,0,0,0,0,0,26,0,15,158580921388304,6,45,169.048950,0.030250,1,-4286.987017,0.000503,1575419111,0,0,0,0,0,1
Raw,1490648213507,27645000000,0,0,-1172865753354928128,0,0,0,0,0,26,0,13,158580921388295,3,46,168.990635,0.030250,1,-2692.248460,0.000629,1176449336,0,0,0,0,0,1
Raw,1490648213507,27645000000,0,0,-1172865753354928128,0,0,0,0,0,27,0,15,158580917575481,6,44,-840.118239,0.033161,1,21490.820709,0.000604,1575424414,0,0,0,0,0,1
Raw,1490648213507,27645000000,0,0,-1172865753354928128,0,0,0,0,0,27,0,13,158580917575459,3,46,-840.125328,0.033161,1,63357.362448,0.000581,1176453296,0,0,0,0,0,1
Raw,1490648213507,27645000000,0,0,-1172865753354928128,0,0,0,0,0,22,0,15,158580921364155,6,44,308.739341,0.030245,1,-7874.148023,0.000593,1575418377,0,0,0,0,0,1
Raw,1490648213507,27645000000,0,0,-1172865753354928128,0,0,0,0,0,16,0,15,158580928714874,6,47,-125.070993,0.031568,1,3248.191729,0.000382,1575420657,0,0,0,0,0,1
Raw,1490648213507,27645000000,0,0,-1172865753354928128,0,0,0,0,0,23,0,15,158580931513381,6,49,-362.441261,0.032071,1,9289.934672,0.000304,1575421904,0,0,0,0,0,1
Raw,1490648213507,27645000000,0,0,-1172865753354928128,0,0,0,0,0,3,0,15,158580926117134,6,46,229.059636,0.031100,1,-5824.584445,0.000458,1575418796,0,0,0,0,0,1
Raw,1490648213507,27645000000,0,0,-1172865753354928128,0,0,0,0,0,3,0,13,158580926117120,3,49,229.006757,0.031100,1,-4944.765140,0.000450,1176449101,0,0,0,0,0,1
Raw,1490648213507,27645000000,0,0,-1172865753354928128,0,0,0,0,0,2,0,15,158580914099683,89,17,-433.826625,0.642664,4,10252.261052,340282346638528859811704183484516925440.000000,1575422279,0,0,0,0,0,1
Raw,1490648213507,27645000000,0,0,-1172865753354928128,0,0,0,0,0,7,0,15,158580926932400,6,48,-720.017797,0.031247,1,18430.199912,0.000341,1575423783,0,0,0,0,0,1
Raw,1490648213507,27645000000,0,0,-1172865753354928128,0,0,0,0,0,6,0,15,158580918322311,6,43,-81.166459,0.034264,1,2024.875177,0.000636,1575420426,0,0,0,0,0,1
Raw,1490648213507,27645000000,0,0,-1172865753354928128,0,0,0,0,0,6,0,13,158580918322289,3,40,-81.262588,0.052303,1,1395.865579,0.001144,1176450318,0,0,0,0,0,1
Raw,1490648213507,27645000000,0,0,-1172865753354928128,0,0,0,0,0,9,0,15,158580929761592,6,48,-712.371943,0.031756,1,18232.108747,0.000376,1575423743,0,0,0,0,0,1
Raw,1490648213507,27645000000,0,0,-1172865753354928128,0,0,0,0,0,9,0,13,158580929761590,3,50,-712.403162,0.031756,1,12126.985392,0.000399,1176452795,0,0,0,0,0,1
Raw,1490648213507,27645000000,0,0,-1172865753354928128,0,0,0,0,0,8,0,15,158580914508296,20,27,-874.199332,0.203387,1,21466.591149,0.003688,1575424593,0,0,0,1,0,1
Raw,1490648213507,27645000000,0,0,-1172865753354928128,0,0,0,0,0,8,0,13,158580914508282,3,36,-874.224008,0.084661,1,16618.847651,0.001915,1176453430,0,0,0,0,0,1
Raw,1490648213513,28645000000,0,0,-1172865753354928128,0,0,0,0,0,26,0,15,158581921387738,6,45,169.101045,0.030250,1,-4456.025283,0.000498,1575419111,0,0,0,0,0,1
Raw,1490648213513,28645000000,0,0,-1172865753354928128,0,0,0,0,0,26,0,13,158581921387731,3,46,169.121239,0.030250,1,-2861.290681,0.000625,1176449336,0,0,0,0,0,1
Raw,1490648213513,28645000000,0,0,-1172865753354928128,0,0,0,0,0,27,0,15,158581917578283,6,44,-840.054164,0.033162,1,22330.935030,0.000599,1575424414,0,0,0,0,0,1
Raw,1490648213513,28645000000,0,0,-1172865753354928128,0,0,0,0,0,27,0,13,158581917578266,3,46,-840.078430,0.033162,1,64197.487962,0.000575,1176453296,0,0,0,0,0,1
Raw,1490648213513,28645000000,0,0,-1172865753354928128,0,0,0,0,0,22,0,15,158581921363122,6,44,308.762926,0.030245,1,-8182.871935,0.000595,1575418377,0,0,0,0,0,1
Raw,1490648213513,28645000000,0,0,-1172865753354928128,0,0,0,0,0,23,0,15,158581931514618,6,49,-362.446919,0.032071,1,9652.403943,0.000308,1575421904,0,0,0,0,0,1
Raw,1490648213513,28645000000,0,0,-1172865753354928128,0,0,0,0,0,3,0,15,158581926116369,6,46,229.128721,0.031100,1,-6053.651271,0.000465,1575418795,0,0,0,0,0,1
Raw,1490648213513,28645000000,0,0,-1172865753354928128,0,0,0,0,0,3,0,13,158581926116358,3,49,229.070934,0.031100,1,-5173.823315,0.000454,1176449101,0,0,0,0,0,1
Raw,1490648213513,28645000000,0,0,-1172865753354928128,0,0,0,0,0,2,0,15,158581914101123,90,17,-433.776183,0.660323,4,10686.146614,340282346638528859811704183484516925440.000000,1575422279,0,0,0,0,0,1
Raw,1490648213513,28645000000,0,0,-1172865753354928128,0,0,0,0,0,4,0,1,161390459,9,42,266.039578,5.737840,4,-42.300202,340282346638528859811704183484516925440.000000,1575418601,0,0,0,0,0,1
Raw,1490648213513,28645000000,0,0,-1172865753354928128,0,0,0,0,0,7,0,15,158581926934802,6,49,-719.998711,0.031247,1,19150.256113,0.000337,1575423783,0,0,0,0,0,1
Raw,1490648213513,28645000000,0,0,-1172865753354928128,0,0,0,0,0,6,0,15,158581918322573,6,43,-81.081338,0.034182,1,2106.040132,0.000634,1575420426,0,0,0,0,0,1
Raw,1490648213513,28645000000,0,0,-1172865753354928128,0,0,0,0,0,6,0,13,158581918322563,3,40,-80.978392,0.055387,1,1477.019509,0.001216,1176450317,0,0,0,0,0,1
Raw,1490648213513,28645000000,0,0,-1172865753354928128,0,0,0,0,0,9,0,15,158581929763970,6,48,-712.350266,0.031756,1,18944.522678,0.000374,1575423743,0,0,0,0,0,1
Raw,1490648213513,28645000000,0,0,-1172865753354928128,0,0,0,0,0,9,0,13,158581929763959,3,50,-712.404526,0.031756,1,12839.412874,0.000379,1176452795,0,0,0,0,0,1
Raw,1490648213513,28645000000,0,0,-1172865753354928128,0,0,0,0,0,8,0,15,158581914511208,21,26,-874.158910,0.214991,1,22340.768041,0.003901,1575424593,0,0,0,1,0,1
Raw,1490648213513,28645000000,0,0,-1172865753354928128,0,0,0,0,0,8,0,13,158581914511199,3,35,-874.178746,0.087017,1,17493.029047,0.001970,1176453430,0,0,0,0,0,1
Raw,1490648213513,28645000000,0,0,-1172865753354928128,0,0,0,0,0,16,0,15,158581928715296,6,47,-124.932141,0.031568,1,3373.237624,0.000383,1575420656,0,0,0,0,0,1
Raw,1490648213520,29645000000,0,0,-1172865753354928128,0,0,0,0,0,26,0,15,158582921387174,6,45,169.260193,0.030250,1,-4625.214808,0.000500,1575419110,0,0,0,0,0,1
Raw,1490648213520,29645000000,0,0,-1172865753354928128,0,0,0,0,0,26,0,13,158582921387165,3,46,169.232535,0.030250,1,-3030.468069,0.000627,1176449335,0,0,0,0,0,1
Raw,1490648213520,29645000000,0,0,-1172865753354928128,0,0,0,0,0,27,0,15,158582917581091,6,44,-839.968821,0.033162,1,23170.955495,0.000594,1575424414,0,0,0,0,0,1
Raw,1490648213520,29645000000,0,0,-1172865753354928128,0,0,0,0,0,27,0,13,158582917581067,3,46,-839.939374,0.033162,1,65037.508193,0.000576,1176453296,0,0,0,0,0,1
Raw,1490648213520,29645000000,0,0,-1172865753354928128,0,0,0,0,0,22,0,15,158582921362093,6,44,308.895302,0.030245,1,-8491.700246,0.000604,1575418376,0,0,0,0,0,1
Raw,1490648213520,29645000000,0,0,-1172865753354928128,0,0,0,0,0,23,0,15,158582931515797,6,50,-362.234824,0.032071,1,10014.739709,0.000299,1575421903,0,0,0,0,0,1
Raw,1490648213520,29645000000,0,0,-1172865753354928128,0,0,0,0,0,3,0,15,158582926115602,6,46,229.280694,0.031100,1,-6282.857346,0.000454,1575418795,0,0,0,0,0,1
Raw,1490648213520,29645000000,0,0,-1172865753354928128,0,0,0,0,0,3,0,13,158582926115593,3,49,229.351756,0.031100,1,-5403.030963,0.000435,1176449099,0,0,0,0,0,1
Raw,1490648213520,29645000000,0,0,-1172865753354928128,0,0,0,0,0,2,0,15,158582914102565,96,15,-433.968954,0.751084,4,11119.894483,340282346638528859811704183484516925440.000000,1575422280,0,0,0,0,0,1
Raw,1490648213520,29645000000,0,0,-1172865753354928128,0,0,0,0,0,4,0,1,19389560,6,42,267.914181,0.037337,4,-5.342652,340282346638528859811704183484516925440.000000,1575418592,0,0,0,0,0,1
Raw,1490648213520,29645000000,0,0,-1172865753354928128,0,0,0,0,0,7,0,15,158582926937204,6,48,-719.851679,0.031248,1,19870.180343,0.000343,1575423782,0,0,0,0,0,1
Raw,1490648213520,29645000000,0,0,-1172865753354928128,0,0,0,0,0,6,0,15,158582918322842,6,43,-80.942724,0.035943,1,2187.055116,0.000670,1575420425,0,0,0,0,0,1
Raw,1490648213520,29645000000,0,0,-1172865753354928128,0,0,0,0,0,6,0,13,158582918322832,3,39,-80.991070,0.058437,1,1558.042770,0.001287,1176450317,0,0,0,0,0,1
Raw,1490648213520,29645000000,0,0,-1172865753354928128,0,0,0,0,0,9,0,15,158582929766345,6,48,-712.227979,0.031757,1,19656.815313,0.000372,1575423742,0,0,0,0,0,1
Raw,1490648213520,29645000000,0,0,-1172865753354928128,0,0,0,0,0,9,0,13,158582929766338,3,49,-712.177059,0.031757,1,13551.694975,0.000439,1176452794,0,0,0,0,0,1
Raw,1490648213520,29645000000,0,0,-1172865753354928128,0,0,0,0,0,8,0,15,158582914514118,22,26,-874.061571,0.220847,1,23214.907837,0.004009,1575424593,0,0,0,1,0,1
Raw,1490648213520,29645000000,0,0,-1172865753354928128,0,0,0,0,0,8,0,13,158582914514116,3,35,-874.100493,0.088139,1,18367.177940,0.001996,1176453430,0,0,0,0,0,1
Raw,1490648213520,29645000000,0,0,-1172865753354928128,0,0,0,0,0,16,0,15,158582928715710,6,47,-124.729981,0.031568,1,3498.077999,0.000382,1575420655,0,0,0,0,0,1
